[{"Name":"Red Barn Stores 3858-CUAJIMALPA","lat":"19.36408","lng":"-99.288336","Address":"JOSE MA. CASTORENA NO. 84  COL. SAN JOSE DE LOS CEDROS, DELEGACION CUAJIMALPA   MEXICO D.F. C.P. 05210"},
  {"Name":"Red Barn Stores 2344-LOMAS","lat": "19.4497769", "lng": "-99.2176528","Address":"BOULEVARD MANUEL AVILA CAMACHO NO. 491 COL. PERIODISTAS C.P.11220"},
  {"Name":"Red Barn Stores 1770-PATIO SANTA FE","lat": "19.4251617", "lng": "-99.1704413","Address":"AV. PROlngACIÓN PASEO DE LA REFORMA NO. 400, ENTRE LAS CALLES: AVENIDA VASCO DE QUIROGA  Y DE AVENIDA PASEO DE LA REFORMA, COL. SANTA FE,  DELEGACIÓN ÁLVARO OBREGÓN CP  01210"},
  {"Name":"Red Barn Stores 2466-CUITLAHUAC","lat": "19.4698718", "lng": "-99.1709736","Address":"AV. CUITLÁHUAC NO. 3651 COL. HOGAR Y SEGURIDAD DELEG. AZCAPOTZALCO C.P.02820"},
  {"Name":"Red Barn Stores 3862-AZCAPOTZALCO","lat": "19.4715642", "lng": "-99.191116","Address":"AV. NEXTENGO NO. 78 COL. SANTA CRUZ ACAYUCAN , MEXICO D.F. C.P. 02770"},
  {"Name":"Red Barn Stores 2347-TLAHUAC","lat": "19.3051478", "lng": "-99.06150939999999","Address":"CALZ. TLÁHUAC NO. 5662  COL. SAN LORENZO TEZONCO  DELEG. TLÁHUAC, MEXICO DF. C.P. 13266"},
  {"Name":"Red Barn Stores 2464-MIRAMONTES ","lat": "19.3320809", "lng": "-99.123747","Address":"AV. ESCUELA NAVAL MILITAR # 753 ESQ. AV. CANAL DE MIRAMONTES DELEG. COYOACÁN C.P. 04890"},
  {"Name":"Red Barn Stores 2670-TLALPAN","lat": "19.380356", "lng": "-99.1411184","Address":"CALZADA TLALPAN NO. 1037  COL. AMERICAS UNIDAS C.P. 03500 DELEG. BENITO JUÁREZ"},
  {"Name":"Red Barn Stores 3857-VILLA COAPA","lat": "19.292946", "lng": "-99.12380700000001","Address":"AV. CANAL DE MIRAMONTES NO. 3520 COL. SAN BARTOLO COAPA  C.P. 14390, MEXICO, D.F."},
  {"Name":"Red Barn Stores 2345-TEPEYAC","lat": "19.4713066", "lng": "-99.1196755","Address":"CALZ. DE GUADALUPE NO. 431 COL. GUADALUPE TEPEYAC C.P.07840 DELEG. GUSTAVO A. MADERO"},
  {"Name":"Red Barn Stores 3794-ACUEDUCTO DE GUADALUPE","lat": "19.531428", "lng": "-99.15573189999999","Address":"AV. LUIS ESPINOZA NO.  160 COL. SANTIAGO ATEPETLAC, DELEGACION GUSTAVO A. MADERO MEXICO D.F. C.P. 07200"},
  {"Name":"Red Barn Stores 3846-BUENAVISTA","lat": "19.4434817", "lng": "-99.15333319999999","Address":"INSURGENTES NORTE NO. 131, COL GUERRERO C.P. 06300   MEXICO, D.F."},
  {"Name":"Red Barn Stores 3851-AEROPUERTO","lat": "19.4197828", "lng": "-99.0942208","Address":"CALZADA IGNACIO ZARAGOZA NO. 58   COL. FEDERAL  C.P. 15700, MEXICO D.F."},
  {"Name":"Red Barn Stores 3872-BALBUENA","lat": "19.4175696", "lng": "-99.1057879","Address":"FRAY SERVANDO TERESA DE MIER NO. 881 COL.  JARDIN BALBUENA C.P. 15900, MEXICO D.F."},
  {"Name":"Red Barn Stores 3877-TORRES  LINDAVISTA","lat": "19.5061811", "lng": "-99.144543","Address":"MIGUEL OTHON DE MENDIZABAL OTE. 343, COL. NUEVA INDUSTRIAL VALLEJO,  C.P. 07700 MÉXICO, D.F"},
  {"Name":"Red Barn Stores 4547-EDUARDO MOLINA","lat": "19.4802945", "lng": "-99.0960087","Address":"CALZADA SAN JUAN DE ARAGÓN NO. 516 COLONIA D.M. NACIONAL DELEGARCIÓN GUSTAVO A. MADERO D.F. C.P. 7090"},
  {"Name":"Red Barn Stores 2430-COPILCO","lat": "19.338269", "lng": "-99.18419980000002","Address":"AV. COPILCO NO. 164 COL. OXTOPULCO DEL. COYOACAN C.P. 04318"},
  {"Name":"Red Barn Stores 2689-FELIX CUEVAS","lat": "19.3722552", "lng": "-99.1761046","Address":"AV. SAN FRANCISCO NO. 1621 COL. DEL VALLE DEL. BENITO JUÁREZ C.P. 03100"},
  {"Name":"Red Barn Stores 3845-UNIVERSIDAD","lat": "19.3686975", "lng": "-99.1641264","Address":"AV. UNIVERSIDAD NO. 936-A COL. SANTA CRUZ ATOYAC   C.P. 03310, MEXICO D.F."},
  {"Name":"Red Barn Stores 3848-TAXQUEÑA","lat": "19.3451697", "lng": "-99.1818565","Address":"MIGUEL A. DE QUEVEDO NO. 175 COL. CHIMALISTAC DELEGACION COYOACAN C.P. 01070, MEXICO D.F."},
  {"Name":"Red Barn Stores 3852-PLATEROS","lat": "19.3697998", "lng": "-99.1924578","Address":"BLVD. ADOLFO LOPEZ MATEOS NO. 1701 COL. LOMAS DE PLATEROS, DELEG. ALVARO OBREGON C.P. 01460 MEXICO D.F."},
  {"Name":"Red Barn Stores 3863-PERIFERICO SUR","lat": "19.3064068", "lng": "-99.18730939999999","Address":"AV. CENTRO COMERCIAL NO. 190 COL. INSURGENTES CUICUILCO C.P. 04530 MEXICO, D.F."},
  {"Name":"Red Barn Stores 3876-LAS AGUILAS","lat": "19.3528526", "lng": "-99.2153484","Address":"LAS AGUILAS NO. 820 COL. LAS AGUILAS C.P. 01710  ALVARO OBREGON MEXICO D.F."},
  {"Name":"Red Barn Stores 1580-EL ROSARIO","lat": "19.5005314", "lng": "-99.19892809999999","Address":"AV. EL ROSARIO NO. 1025 ENTRE LAS CALLES AQUILES SERDÁN Y AV. DEL PARQUE, COL. TIERRA NUEVA, C.P. 02430, DELEG. AZCAPOTZALCO, D.F."},
  {"Name":"Red Barn Stores 2033-PLAZA ORIENTE","lat": "19.3844437", "lng": "-99.07892059999999","Address":"AV. CANAL DE TEZONTLE NO. 1520 COL. DR. ALFONSO ORTIZ TIRADO DELEG. IZTAPALAPA D.F. C.P.09020"},
  {"Name":"Red Barn Stores 1460-CUEMANCO","lat": "3.3968948", "lng": "-76.5285913","Address":"CAÑAVERALES #222 COL.GRANJAS COAPA DELEGACION TLALPAN C.P.14330"},
  {"Name":"Red Barn Stores 2382-INTERLOMAS","lat": "19.4038099", "lng": "-99.27134339999999","Address":"BLVD. MAGNOCENTRO NO. 35, LOTE 1, MANZANA II, COL  BOSQUES DE LAS PALMAS, HUIXQUILUCAN, EDO. DE MEXICO, C.P. 52787"},
  {"Name":"Red Barn Stores 3504-AV. JESUS DEL MONTE","lat": "19.3980605", "lng": "-99.2904439","Address":"BLVD. PASEO INTERLOMAS # 5 ENTRE LAS CALLES PASEO INTERLOMAS Y JESUS DEL MONTE, COL. GREEN HOUSE SEGUNDA ETAPA, CP 52779, HUIXQUILUCAN EDO MEX"},
  {"Name":"Red Barn Stores 2343-TOLUCA","lat": "19.2809785", "lng": "-99.63938879999999","Address":"PASEO TOLLOCAN NO. 600 COL. SECTOR PROGRESO, C.P.50150 TOLUCA EDO. DE MÉXICO"},
  {"Name":"Red Barn Stores 3263-PILARES","lat":" 19.2851927", "lng": "-99.59151729999999","Address":"AV. BAJA VELOCIDAD NO. 1201 ORIENTE, ENTRE LAS CALLES PRIVADA CERRADA BERNARDO VARA Y TOLLOCAN II, COL. SAN JERÓNIMO CHICAHUALCO, CP 52170, METEPEC, MEX. (OFICIAL) "}]